~Version Information
 VERS.                  2.0:   CWLS log ASCII Standard -VERSION 2.0
 WRAP.                   NO:   One line per depth step
~Well Information Block
#MNEM.UNIT     VALUE/NAME     DESCRIPTION
#---------     -----------    ---------------------------
 STRT.S             18:40:05 26-Aug-20: START TIME 18:40:05 26-Aug-20
 STOP.S             19:19:35 26-Aug-20: STOP TIME  19:19:35 26-Aug-20
 STEP.S                 0.0000: STEP TIME
 NULL.               -999.2500: NULL VALUE
 MDS .        Operator Entered:  MAG DATA SOURCE
 UWI .            608124013300:  UNIQUE WELL IDENTIFIER
 API .            608124013300:  API NUMBER
 LEAS.             OCS-G 21245:  LEASE NAME
 RIG .     Rowan Relentless DS-18:  RIG NAME
 FLD .     Walker Ridge Block 678:  FIELD NAME
 CTRY.                     USA:  COUNTRY NAME
 REGN.                     GOM:  REGION
 BASE.               Lafayette:  LOGGING EQUIPMENT BASE LOCATION
 WTYP.                Deviated:  WELL TYPE
 PDAT.          Mean Sea Level:  PERMANENT DATUM
 WELL.     OCS-G 21245 IS003 ST00BP00:  WELL NAME
 COMP.     Union Oil Company of California:  COMPANY
 SON .        LF-XX-0906531345:  JOB NUMBER
 FTOP.          Formation Tops:  FORM TOPS DESC
 ILTD.               Lithology:  INTERP LTH DESC
 SVYD.                  Survey:  SURVEY DESC
 DMOD.             Drill Model:  DRILL MOD DESC
 HPTY.       Minimum Curvature:  HOLE POS TYPE
 NREF.                    Grid:  NORTH REFERENCE
 SPUD.               13-Aug-20:  SPUD DATE
 DATE.      08.08.32 12-Aug-20:  END TIME
 STIM.      08.08.32 12-Aug-20:  START TIME
 DMF .             Drill Floor:  DRILL MEAS FROM
 DFST.                        :  DIST FSL TEXT
 DFWT.                        :  DIST FWL TEXT
 CNTY.                        :  COUNTY
 PROV.                        :  PROVINCE
 SRVC.             Halliburton:  SERVICE COMPANY
 STAT.                        :  STATE
 LOC .                        :  LOCATION
 AGAP.ft             81.000000:  AIR GAP
 APD .ft             81.000000:  DEPTH ABOVE PD
 WDMS.ft           6913.000000:  WD ELEV
 EGL .ft              0.000000:  GROUND ELEVATION
 EPD .ft              0.000000:  ELEVATION
 AZTC.deg            -0.680000:  AZM TOTAL CORR
 GRDC.deg             0.850000:  GRID CORRECTION
 MDEC.deg             0.170000:  MAGNETIC DECL
 MDIP.deg            55.570000:  MAGNETIC DIP
 MFLD.nT          44591.000000:  MAGNETIC FIELD
 GVFD.g               1.000000:  GRAVITY FIELD
 VSDR.deg           231.240005:  VERT SEC DIRECT
 TDD .ft          24400.000000:  TOTAL DEPTH (DRILLER)
 SDEP.ft           6994.000000:  START DEPTH
 DFSL.ft              0.000000:  DISTANCE FSL
 DFWL.ft              0.000000:  DISTANCE FWL
 UTMY.usft      9554138.000000:  UTM Y
 UTMX.usft      2257317.000000:  UTM X
 WHEW.ft              0.000000:  WELL HEAD E/W
 WHNS.ft              0.000000:  WELL HEAD N/S
 LONG.deg            91.085762:  LONGITUDE
 LATI.deg            26.317590:  LATITUDE
 TVDS.ft             81.000000:  TVDSS CORRECTN
 MAGU.                 1610820:  MAGUTM CHECKSUM
 VSC .                       0:  VS TO CLOSURE
~Curve Information Block
#MNEM.UNIT                 API CODE     Curve Description
#---------               -----------    ---------------------------
 TIME.HHMMSS            00 000 000 000:  Pit Volume Time & Date
 PitVolTotal.bbl        00 000 000 000:  Pit Volume Pit Vol Total
 PitVolChg.bbl          00 000 000 000:  Pit Volume Pit Vol Chg
 PitVolRate.bpm         00 000 000 000:  Pit Vol Rate
 Pit1Volume.bbl         00 000 000 000:  Pit 1 Volume
 Pit2Volume.bbl         00 000 000 000:  Pit 2 Volume
 Pit3Volume.bbl         00 000 000 000:  Pit 3 Volume
 Pit4Volume.bbl         00 000 000 000:  Pit 4 Volume
 Pit5Volume.bbl         00 000 000 000:  Pit 5 Volume
 Pit6Volume.bbl         00 000 000 000:  Pit 6 Volume
 Pit7Volume.bbl         00 000 000 000:  Pit 7 Volume
 Pit8Volume.bbl         00 000 000 000:  Pit 8 Volume
 Pit9Volume.bbl         00 000 000 000:  Pit 9 Volume
 Pit10Volume.bbl        00 000 000 000:  Pit 10 Volume
 Pit11Volume.bbl        00 000 000 000:  Pit 11 Volume
 Pit12Volume.bbl        00 000 000 000:  Pit 12 Volume
 Pit13Volume.bbl        00 000 000 000:  Pit 13 Volume
 Pit14Volume.bbl        00 000 000 000:  Pit 14 Volume
 Pit15Volume.bbl        00 000 000 000:  Pit 15 Volume
 Pit16Volume.bbl        00 000 000 000:  Pit 16 Volume
 Pit17Volume.bbl        00 000 000 000:  Pit 17 Volume
#Other Information
#
#WARRANTY: Halliburton will use its best efforts to furnish customers with 
#accurate information and interpretations that are part of, and incident to, the services 
#provided.  However, Halliburton cannot and does not warrant the accuracy 
#or correctness of such information and interpretations.  Under no circumstances should any 
#such information or interpretation be relied upon as the sole basis for any drilling, 
#completion, production, or financial decision or any procedure involving any risk to the 
#safety of any drilling venture, drilling rig or its crew or any other third party.  The 
#Customer has full responsibility for all drilling, completion and production operation.  
#Halliburton makes no representations or warranties, either expressed or 
#implied, including, but not limited to, the implied warranties of merchantability or fitness 
#for a particular purpose, with respect to the services rendered.  In no event will 
#Halliburton be liable for failure to obtain any particular results or for 
#any damages, including, but not limited to, indirect, special or consequential damages, 
#resulting from the use of any information or interpretation provided by Halliburton.
#
~A         TIME         PitVolTotal PitVolChg PitVolRate Pit1Volume Pit2Volume Pit3Volume Pit4Volume Pit5Volume Pit6Volume Pit7Volume Pit8Volume Pit9Volume Pit10Volume Pit11Volume Pit12Volume Pit13Volume Pit14Volume Pit15Volume Pit16Volume Pit17Volume 
   18:40:05.26-Aug-2020    167.1749   -0.0026   -15.7170  1472.3804   145.2905   920.4331   375.1679   459.9151   418.2105   266.9823   427.8857   409.2754    292.6217     81.7677    527.4076     85.4072     74.5656     21.9621     14.0940 65.5115
   18:40:35.26-Aug-2020    167.2453    0.0678    -3.5523  1472.3804   147.8041   920.4331   375.1679   461.5692   418.8582   266.9823   428.5484   409.9207    292.6217     81.7029    528.8737     85.5424     76.1242     22.1757     14.0123 65.5115
   18:41:05.26-Aug-2020    167.3100    0.1324     3.8864  1474.6282   145.2905   920.4331   374.5878   458.2610   418.2105   267.5751   427.8857   409.9207    292.6217     81.7677    525.9414     85.5422     74.5656     22.1757     14.0940 65.5933
   18:41:35.26-Aug-2020    167.5018    0.3243    15.5487  1474.6282   145.2905   920.4331   375.1679   459.9151   418.2105   267.5751   428.5484   409.2754    293.4131     81.9596    528.8737     85.5422     74.5656     21.7306     14.1758 65.5115
   18:42:05.26-Aug-2020    167.5047    0.3271     0.0132  1474.6282   147.8041   920.4331   375.1679   458.2610   418.2105   267.5751   427.8857   409.9207    292.6217     81.8948    527.4076     85.6099     74.5656     22.1757     14.0940 65.5933
   18:42:35.26-Aug-2020    167.3748    0.1973     3.8864  1474.6282   147.8041   920.8015   376.3766   461.5692   418.2105   268.7607   428.5484   409.9207    292.6217     81.8326    528.8737     85.5422     74.5656     22.1757     14.0940 65.5933
   18:43:05.26-Aug-2020    167.3775    0.1999     7.9314  1472.3804   145.2905   920.8015   375.7722   458.2610   418.2105   267.5751   428.5484   409.2754    293.4131     81.7677    527.4076     85.6097     74.5656     21.9621     14.1758 65.5115
   18:43:35.26-Aug-2020    167.2397    0.0622     0.0000  1472.3804   145.2905   920.8015   375.1679   459.9151   418.8582   268.7607   428.5484   409.9207    293.4131     81.8326    525.9414     85.4072     74.5656     22.1757     14.0940 65.5933
   18:44:05.26-Aug-2020    167.3100    0.1324     0.0000  1474.6282   150.3177   920.8015   375.1679   461.5692   418.2105   268.1679   429.2387   409.9207    292.6217     81.7677    527.4076     85.5422     74.5656     22.1757     14.0940 65.6718
   18:44:35.26-Aug-2020    167.3722    0.1947     0.0000  1474.6282   147.8041   921.1663   375.1679   461.5692   417.5357   267.5751   428.5484   409.2754    292.6217     81.8300    527.4076     85.5422     74.5656     22.1757     14.1758 65.7536
   18:45:05.26-Aug-2020    167.2424    0.0648     0.0000  1474.6282   150.3177   920.4331   375.7722   461.5692   418.8582   266.9823   428.5484   410.5928    292.6217     81.7677    528.8737     85.4746     76.1242     22.1757     14.0940 65.5933
   18:45:35.26-Aug-2020    167.5045    0.3269     0.0000  1474.6282   147.8041   920.4331   375.7722   459.9151   418.8582   268.7607   428.5484   410.5928    292.6217     81.8948    527.4076     85.6097     76.1242     21.9621     14.0123 65.5115
   18:46:05.26-Aug-2020    167.2424    0.0648     0.0000  1474.6282   145.2905   920.8015   375.7722   459.9151   418.2105   269.3534   428.5484   410.5928    291.8302     81.7677    525.9414     85.4746     73.0069     21.9621     14.0940 65.5933
   18:46:35.26-Aug-2020    167.5099    0.3323     0.0000  1474.6282   147.8041   920.8015   376.9809   461.5692   418.2105   267.5751   429.2387   410.5928    292.6217     81.8326    531.8060     85.6773     76.1242     21.7306     14.0940 65.5115
   18:47:05.26-Aug-2020    167.3100    0.1324     0.0000  1474.6282   147.8041   920.8015   376.3766   459.9151   418.2105   267.5751   428.5484   410.5928    292.6217     81.7677    525.9414     85.5422     74.5656     21.9621     14.0940 65.7536
   18:47:35.26-Aug-2020    167.4453    0.2677     0.0000  1472.3804   145.2905   920.8015   375.7722   461.5692   418.2105   267.5751   428.5484   409.9207    292.6217     81.7677    527.4076     85.6775     76.1242     21.9621     14.1758 65.5933
   18:48:05.26-Aug-2020    167.2453    0.0678     0.0000  1470.1324   147.8041   920.8015   375.1679   459.9151   418.8582   267.5751   428.5484   410.5928    292.6217     81.7029    528.8737     85.5424     74.5656     22.1757     14.0940 65.5933
   18:48:35.26-Aug-2020    167.3776    0.2001     0.0000  1472.3804   145.2905   920.8015   375.1679   464.8113   418.8582   267.5751   429.2387   410.5928    291.8302     81.7677    525.9414     85.6099     74.5656     21.9621     14.0940 65.5115
   18:49:05.26-Aug-2020    167.2453    0.0678     0.1686  1472.3804   147.8041   920.8015   375.1679   459.9151   418.8582   266.9823   428.5484   409.9207    293.4131     81.7029    527.4076     85.5424     74.5656     21.9621     14.0940 65.5933
   18:49:35.26-Aug-2020    167.3748    0.1973    15.8728  1472.3804   147.8041   920.4331   375.7722   458.2610   418.2105   268.1679   429.9290   410.5928    292.6217     81.8326    531.8060     85.5422     74.5656     21.9621     14.0940 65.5933
   18:50:05.26-Aug-2020    167.3694    0.1919     7.9414  1470.1324   145.2905   920.4331   375.1679   456.6069   418.2105   268.1679   428.5484   409.9207    291.8302     81.8948    528.8737     85.4746     73.0069     21.7306     14.1758 65.5115
   18:50:35.26-Aug-2020    167.3046    0.1270     3.8825  1470.1324   147.8041   920.0646   375.1679   458.2610   418.8582   268.7607   427.8857   409.9207    292.6217     81.8300    525.9414     85.4746     76.1242     21.9621     14.0123 65.6718
   18:51:05.26-Aug-2020    167.3019    0.1244     0.0000  1470.1324   145.2905   920.0646   375.1679   459.9151   418.2105   267.5751   427.8857   409.9207    291.8302     81.7029    527.4076     85.4746     74.5656     21.9621     14.0940 65.5933
   18:51:35.26-Aug-2020    167.1776    0.0000   -15.5587  1472.3804   145.2905   920.4331   374.5878   456.6069   418.2105   267.5751   428.5484   409.2754    292.6217     81.7029    525.9414     85.4746     73.0069     21.7306     14.0940 65.5115
   18:52:05.26-Aug-2020    167.3046    0.1270   -16.0254  1474.6282   147.8041   920.4331   375.1679   459.9151   418.2105   268.1679   429.9290   409.9207    292.6217     81.8300    530.3398     85.4746     74.5656     21.9621     14.0940 65.5933
   18:52:35.26-Aug-2020    167.1749   -0.0026     0.0000  1472.3804   145.2905   920.0646   375.1679   456.6069   418.8582   267.5751   427.8857   409.2754    291.8302     81.7677    528.8737     85.4072     74.5656     21.9621     14.0940 65.5115
   18:53:05.26-Aug-2020    167.3722    0.1947    -3.7178  1472.3804   147.8041   920.4331   375.1679   458.2610   418.2105   268.1679   428.5484   409.2754    292.6217     81.8300    528.8737     85.5422     74.5656     22.1757     14.1758 65.5933
   18:53:35.26-Aug-2020    167.1099   -0.0676     4.0451  1470.1324   150.3177   920.0646   375.7722   454.9527   418.8582   268.7607   428.5484   409.2754    292.6217     81.7029    530.3398     85.4070     74.5656     22.1757     14.0940 65.5115
   18:54:05.26-Aug-2020    167.3750    0.1975     0.0000  1472.3804   147.8041   920.4331   376.3766   458.2610   418.8582   267.5751   428.5484   409.9207    291.8302     81.7029    528.8737     85.5424     74.5656     21.7306     14.0123 65.5115
   18:54:35.26-Aug-2020    167.3694    0.1919     0.0000  1474.6282   147.8041   920.4331   375.1679   458.2610   418.8582   267.5751   428.5484   410.5928    293.4131     81.8300    528.8737     85.5422     74.5656     21.9621     14.0123 65.5115
   18:55:05.26-Aug-2020    167.3019    0.1244     0.0000  1470.1324   147.8041   920.4331   375.1679   459.9151   418.8582   267.5751   428.5484   408.5763    292.6217     81.7029    527.4076     85.4746     74.5656     21.9621     14.0940 65.5933
   18:55:35.26-Aug-2020    167.3046    0.1270     0.0000  1472.3804   145.2905   920.0646   375.1679   458.2610   418.2105   268.1679   427.1954   409.2754    291.8302     81.7677    527.4076     85.4072     74.5656     21.9621     14.0940 65.5115
   18:56:05.26-Aug-2020    167.2398    0.0622     0.0000  1472.3804   147.8041   920.4331   375.7722   456.6069   418.2105   266.9823   429.9290   409.2754    293.4131     81.6381    528.8737     85.4746     74.5656     21.7306     14.0940 65.5933
