~Version Information
 VERS.                  2.0:   CWLS log ASCII Standard -VERSION 2.0
 WRAP.                   NO:   One line per depth step
~Well Information Block
#MNEM.UNIT     VALUE/NAME     DESCRIPTION
#---------     -----------    ---------------------------
 STRT.S             18:40:05 26-Aug-20: START TIME 18:40:05 26-Aug-20
 STOP.S             19:19:35 26-Aug-20: STOP TIME  19:19:35 26-Aug-20
 STEP.S                 0.0000: STEP TIME
 NULL.               -999.2500: NULL VALUE
 MDS .        Operator Entered:  MAG DATA SOURCE
 UWI .            608124013300:  UNIQUE WELL IDENTIFIER
 API .            608124013300:  API NUMBER
 LEAS.             OCS-G 21245:  LEASE NAME
 RIG .     Rowan Relentless DS-18:  RIG NAME
 FLD .     Walker Ridge Block 678:  FIELD NAME
 CTRY.                     USA:  COUNTRY NAME
 REGN.                     GOM:  REGION
 BASE.               Lafayette:  LOGGING EQUIPMENT BASE LOCATION
 WTYP.                Deviated:  WELL TYPE
 PDAT.          Mean Sea Level:  PERMANENT DATUM
 WELL.     OCS-G 21245 IS003 ST00BP00:  WELL NAME
 COMP.     Union Oil Company of California:  COMPANY
 SON .        LF-XX-0906531345:  JOB NUMBER
 FTOP.          Formation Tops:  FORM TOPS DESC
 ILTD.               Lithology:  INTERP LTH DESC
 SVYD.                  Survey:  SURVEY DESC
 DMOD.             Drill Model:  DRILL MOD DESC
 HPTY.       Minimum Curvature:  HOLE POS TYPE
 NREF.                    Grid:  NORTH REFERENCE
 SPUD.               13-Aug-20:  SPUD DATE
 DATE.      08.08.32 12-Aug-20:  END TIME
 STIM.      08.08.32 12-Aug-20:  START TIME
 DMF .             Drill Floor:  DRILL MEAS FROM
 DFST.                        :  DIST FSL TEXT
 DFWT.                        :  DIST FWL TEXT
 CNTY.                        :  COUNTY
 PROV.                        :  PROVINCE
 SRVC.             Halliburton:  SERVICE COMPANY
 STAT.                        :  STATE
 LOC .                        :  LOCATION
 AGAP.ft             81.000000:  AIR GAP
 APD .ft             81.000000:  DEPTH ABOVE PD
 WDMS.ft           6913.000000:  WD ELEV
 EGL .ft              0.000000:  GROUND ELEVATION
 EPD .ft              0.000000:  ELEVATION
 AZTC.deg            -0.680000:  AZM TOTAL CORR
 GRDC.deg             0.850000:  GRID CORRECTION
 MDEC.deg             0.170000:  MAGNETIC DECL
 MDIP.deg            55.570000:  MAGNETIC DIP
 MFLD.nT          44591.000000:  MAGNETIC FIELD
 GVFD.g               1.000000:  GRAVITY FIELD
 VSDR.deg           231.240005:  VERT SEC DIRECT
 TDD .ft          24400.000000:  TOTAL DEPTH (DRILLER)
 SDEP.ft           6994.000000:  START DEPTH
 DFSL.ft              0.000000:  DISTANCE FSL
 DFWL.ft              0.000000:  DISTANCE FWL
 UTMY.usft      9554138.000000:  UTM Y
 UTMX.usft      2257317.000000:  UTM X
 WHEW.ft              0.000000:  WELL HEAD E/W
 WHNS.ft              0.000000:  WELL HEAD N/S
 LONG.deg            91.085762:  LONGITUDE
 LATI.deg            26.317590:  LATITUDE
 TVDS.ft             81.000000:  TVDSS CORRECTN
 MAGU.                 1610820:  MAGUTM CHECKSUM
 VSC .                       0:  VS TO CLOSURE
~Curve Information Block
#MNEM.UNIT                 API CODE     Curve Description
#---------               -----------    ---------------------------
 TIME.HHMMSS            00 000 000 000:  Pit Volume Time & Date
 PitVolTotal.bbl        00 000 000 000:  Pit Volume Pit Vol Total
 PitVolChg.bbl          00 000 000 000:  Pit Volume Pit Vol Chg
 PitVolRate.bpm         00 000 000 000:  Pit Vol Rate
 Pit1Volume.bbl         00 000 000 000:  Pit 1 Volume
 Pit2Volume.bbl         00 000 000 000:  Pit 2 Volume
 Pit3Volume.bbl         00 000 000 000:  Pit 3 Volume
 Pit4Volume.bbl         00 000 000 000:  Pit 4 Volume
 Pit5Volume.bbl         00 000 000 000:  Pit 5 Volume
 Pit6Volume.bbl         00 000 000 000:  Pit 6 Volume
 Pit7Volume.bbl         00 000 000 000:  Pit 7 Volume
 Pit8Volume.bbl         00 000 000 000:  Pit 8 Volume
 Pit9Volume.bbl         00 000 000 000:  Pit 9 Volume
 Pit10Volume.bbl        00 000 000 000:  Pit 10 Volume
 Pit11Volume.bbl        00 000 000 000:  Pit 11 Volume
 Pit12Volume.bbl        00 000 000 000:  Pit 12 Volume
 Pit13Volume.bbl        00 000 000 000:  Pit 13 Volume
 Pit14Volume.bbl        00 000 000 000:  Pit 14 Volume
 Pit15Volume.bbl        00 000 000 000:  Pit 15 Volume
 Pit16Volume.bbl        00 000 000 000:  Pit 16 Volume
 Pit17Volume.bbl        00 000 000 000:  Pit 17 Volume
#Other Information
#
#WARRANTY: Halliburton will use its best efforts to furnish customers with 
#accurate information and interpretations that are part of, and incident to, the services 
#provided.  However, Halliburton cannot and does not warrant the accuracy 
#or correctness of such information and interpretations.  Under no circumstances should any 
#such information or interpretation be relied upon as the sole basis for any drilling, 
#completion, production, or financial decision or any procedure involving any risk to the 
#safety of any drilling venture, drilling rig or its crew or any other third party.  The 
#Customer has full responsibility for all drilling, completion and production operation.  
#Halliburton makes no representations or warranties, either expressed or 
#implied, including, but not limited to, the implied warranties of merchantability or fitness 
#for a particular purpose, with respect to the services rendered.  In no event will 
#Halliburton be liable for failure to obtain any particular results or for 
#any damages, including, but not limited to, indirect, special or consequential damages, 
#resulting from the use of any information or interpretation provided by Halliburton.
#
~A         TIME         PitVolTotal PitVolChg PitVolRate Pit1Volume Pit2Volume Pit3Volume Pit4Volume Pit5Volume Pit6Volume Pit7Volume Pit8Volume Pit9Volume Pit10Volume Pit11Volume Pit12Volume Pit13Volume Pit14Volume Pit15Volume Pit16Volume Pit17Volume 
# ...
   18:56:35.26-Aug-2020    167.1695   -0.0081     0.0000  1470.1324   147.8041   920.4331   376.3766   456.6069   418.8582   267.5751   427.8857   409.9207    291.8302     81.8974    528.8737     85.5422     74.5656     22.1757     14.0940 65.5933
   18:57:05.26-Aug-2020    167.2424    0.0648     0.0000  1470.1324   147.8041   920.0646   375.1679   458.2610   418.8582   268.1679   427.8857   409.9207    292.6217     81.7677    528.8737     85.4746     74.5656     21.9621     14.0940 65.5115
   18:57:35.26-Aug-2020    167.2424    0.0648     0.0000  1470.1324   147.8041   920.4331   376.3766   454.9527   418.2105   268.1679   428.5484   409.9207    293.4131     81.7677    528.8737     85.4746     74.5656     22.1757     14.1758 65.5933
   18:58:05.26-Aug-2020    167.3046    0.1270     0.0000  1470.1324   147.8041   920.0646   376.3766   456.6069   418.2105   268.1679   428.5484   409.9207    292.6217     81.8300    528.8737     85.4746     74.5656     21.9621     14.0940 65.5115
   18:58:35.26-Aug-2020    167.4342    0.2567     0.0000  1467.8845   147.8041   920.0646   375.7722   454.9527   418.8582   267.5751   427.8857   409.9207    292.6217     81.9596    528.8737     85.4746     74.5656     22.1757     14.0940 65.5933
   18:59:05.26-Aug-2020    167.2370    0.0594     0.0000  1470.1324   147.8041   920.4331   375.7722   456.6069   418.2105   268.1679   428.5484   409.9207    292.6217     81.8300    528.8737     85.4070     76.1242     21.9621     14.0940 65.6718
   18:59:35.26-Aug-2020    167.3694    0.1919     0.0000  1472.3804   145.2905   920.4331   375.7722   458.2610   419.5329   268.1679   428.5484   411.2650    293.4131     81.8948    531.8060     85.4746     74.5656     22.1757     14.0940 65.5933
   19:00:05.26-Aug-2020    167.2424    0.0648     0.0000  1467.8845   147.8041   920.0646   375.1679   456.6069   418.8582   268.7607   427.8857   409.2754    292.6217     81.7677    528.8737     85.4746     74.5656     21.9621     14.0940 65.5933
   19:00:35.26-Aug-2020    167.3694    0.1919     0.0000  1470.1324   147.8041   920.0646   376.3766   456.6069   418.2105   267.5751   427.8857   409.9207    294.1730     81.8948    530.3398     85.4746     73.0069     21.9621     14.0940 65.5933
   19:01:05.26-Aug-2020    167.3100    0.1324     0.0000  1472.3804   147.8041   920.8015   375.7722   461.5692   418.8582   268.1679   429.2387   409.9207    292.6217     81.7677    527.4076     85.5422     76.1242     22.1757     14.0940 65.7536
   19:01:35.26-Aug-2020    167.4424    0.2649     0.0000  1474.6282   147.8041   920.8015   376.3766   464.8113   418.8582   268.1679   428.5484   409.9207    292.6217     81.8326    527.4076     85.6099     74.5656     21.7306     14.0123 65.5115
   19:02:05.26-Aug-2020    167.4451    0.2675     0.0000  1476.8761   145.2905   921.1663   375.1679   461.5692   418.2105   267.5751   429.2387   409.9207    292.6217     81.7677    527.4076     85.6773     74.5656     21.9621     14.1758 65.5933
   19:02:35.26-Aug-2020    167.5129    0.3353     0.0000  1474.6282   145.2905   921.1663   375.1679   463.1572   418.8582   267.5751   427.8857   410.5928    292.6217     81.7677    527.4076     85.7451     73.0069     21.9621     14.0940 65.5115
   19:03:05.26-Aug-2020    167.3045    0.1270     0.0000  1474.6282   147.8041   920.8015   376.9809   461.5692   418.2105   267.5751   429.2387   409.9207    294.1730     81.8974    527.4076     85.4072     74.5656     21.9621     14.0940 65.5115
   19:03:35.26-Aug-2020    167.3748    0.1973     0.0000  1472.3804   145.2905   920.8015   375.1679   463.1572   418.2105   268.1679   429.2387   409.9207    293.4131     81.8326    525.9414     85.5422     74.5656     21.9621     14.0123 65.5115
   19:04:05.26-Aug-2020    167.3748    0.1973     0.0000  1474.6282   147.8041   921.1663   374.5878   463.1572   418.2105   266.9823   428.5484   410.5928    292.6217     81.8326    527.4076     85.5422     74.5656     22.1757     14.0940 65.5115
   19:04:35.26-Aug-2020    167.3776    0.2001     0.0000  1476.8761   145.2905   921.1663   375.1679   459.9151   418.2105   266.9823   428.5484   409.2754    291.8302     81.7677    525.9414     85.6099     73.0069     21.9621     14.1758 65.7536
   19:05:05.26-Aug-2020    167.3720    0.1944     0.0000  1474.6282   147.8041   920.8015   375.7722   463.1572   418.2105   266.9823   428.5484   409.9207    291.8302     81.8974    530.3398     85.4746     74.5656     22.1757     14.0940 65.6718
   19:05:35.26-Aug-2020    167.5047    0.3271     0.0000  1474.6282   147.8041   920.4331   375.1679   458.2610   418.2105   268.1679   429.2387   409.9207    292.6217     81.8948    530.3398     85.6099     74.5656     22.1757     14.0940 65.5933
   19:06:05.26-Aug-2020    167.3694    0.1919     0.0000  1474.6282   147.8041   920.4331   376.3766   454.9527   418.2105   268.1679   427.8857   409.2754    292.6217     81.8948    528.8737     85.4746     74.5656     22.1757     14.0940 65.5933
   19:06:35.26-Aug-2020    167.1101   -0.0675     0.0000  1470.1324   145.2905   920.4331   375.7722   458.2610   418.2105   268.1679   428.5484   409.2754    291.8302     81.7029    528.8737     85.4072     74.5656     21.9621     14.0940 65.5933
   19:07:05.26-Aug-2020    167.3100    0.1324     0.0000  1470.1324   145.2905   920.4331   374.5878   456.6069   418.2105   267.5751   427.8857   409.2754    291.8302     81.7677    527.4076     85.5422     74.5656     21.9621     14.0940 65.5115
   19:07:35.26-Aug-2020    167.3046    0.1270    -0.1555  1470.1324   147.8041   920.4331   375.1679   458.2610   418.2105   267.5751   427.8857   409.2754    292.6217     81.8300    528.8737     85.4746     74.5656     22.1757     14.0940 65.5115
   19:08:05.26-Aug-2020    167.4398    0.2623     8.1100  1472.3804   147.8041   920.4331   376.3766   458.2610   418.8582   268.1679   428.5484   410.5928    291.8302     81.8300    531.8060     85.6099     76.1242     21.9621     14.0940 65.6718
   19:08:35.26-Aug-2020    167.1749   -0.0026    -4.0451  1472.3804   147.8041   920.4331   375.1679   458.2610   418.2105   266.9823   429.2387   409.2754    292.6217     81.7677    527.4076     85.4072     74.5656     21.9621     14.0940 65.5933
   19:09:05.26-Aug-2020    167.2452    0.0676    11.9862  1472.3804   145.2905   920.8015   375.7722   458.2610   418.2105   267.5751   428.5484   409.2754    293.4131     81.7029    527.4076     85.5422     74.5656     21.9621     14.0940 65.5933
   19:09:35.26-Aug-2020    167.1749   -0.0026    -7.7728  1474.6282   147.8041   920.8015   375.7722   459.9151   419.5329   267.5751   428.5484   410.5928    292.6217     81.7677    528.8737     85.4072     76.1242     21.9621     14.0940 65.5115
   19:10:05.26-Aug-2020    167.4370    0.2595    -0.1686  1472.3804   145.2905   920.4331   375.1679   456.6069   418.2105   267.5751   427.8857   410.5928    292.6217     81.8948    528.8737     85.5422     74.5656     21.9621     14.1758 65.5115
   19:10:35.26-Aug-2020    167.3776    0.2001     0.0000  1474.6282   147.8041   920.8015   375.1679   459.9151   418.2105   266.9823   428.5484   409.2754    291.8302     81.7677    528.8737     85.6099     74.5656     21.9621     14.0940 65.5115
   19:11:05.26-Aug-2020    167.1749   -0.0026     0.0000  1472.3804   147.8041   920.4331   375.1679   458.2610   418.8582   266.9823   428.5484   409.2754    292.6217     81.7677    528.8737     85.4072     76.1242     22.1757     14.0940 65.5933
   19:11:35.26-Aug-2020    167.1101   -0.0675     0.0000  1472.3804   147.8041   920.0646   374.5878   456.6069   418.8582   267.5751   427.8857   409.9207    291.8302     81.7029    530.3398     85.4072     74.5656     21.9621     14.0940 65.5115
   19:12:05.26-Aug-2020    167.2371    0.0596     0.0000  1470.1324   147.8041   920.0646   375.1679   453.2986   418.2105   268.1679   428.5484   409.2754    292.6217     81.8300    530.3398     85.4072     74.5656     22.1757     14.0940 65.5115
   19:12:35.26-Aug-2020    167.1747   -0.0028     0.0000  1467.8845   145.2905   920.4331   375.7722   458.2610   418.2105   268.1679   428.5484   409.2754    291.8302     81.7677    528.8737     85.4070     74.5656     22.1757     14.0940 65.5115
